{
    "restrooms": [
        {
            "id": 1,
            "name": "Bryant Park",
            "address": "58 W 42nd St",
            "borough": "Manhattan",
            "type": "Public",
            "image": "no-img",
            "hours": "Daily: 7am-10pm",
            "handicap": true,
            "likes": 0,
            "dislikes": 0
        },
        {
            "id": 2,
            "name": "",
            "address": "125th St. Subway Station",
            "borough": "Manhattan",
            "type": "Public",
            "image": "no-img",
            "hours": "7am- 11pm",
            "handicap": false,
            "likes": 0,
            "dislikes": 0
        },
        {
            "id": 3,
            "name": "McDonald's",
            "address": "34th St and 10th Ave.",
            "borough": "Manhattan",
            "type": "Fast-Food",
            "image": "no-img",
            "hours": "24 hours",
            "handicap": false,
            "likes": 0,
            "dislikes": 0
        },
        {
            "id": 4,
            "name": "Whole Foods",
            "address": "214 3rd St",
            "borough": "Brooklyn",
            "type": "Grocery",
            "image": "no-img",
            "hours": "Daily: 8am-11pm",
            "handicap": false,           
            "likes": 0,
            "dislikes": 0
        },
        {
            "id": 5,
            "name": "Furman's Coffee",
            "address": "547 Nostrand Ave",
            "borough": "Brooklyn",
            "type": "Coffee Shop",
            "image": "no-img",
            "hours": "Mon-Thurs 6am-5pm, Fri 6am-5pm, Sat 7am-3:30pm, Sun 7am-5pm",
            "handicap": false,
            "likes": 0,
            "dislikes": 0
        },
        {
            "id": 6,
            "address": "Starbucks @ 6423 18th Ave",
            "borough": "Brooklyn",
            "type": "Coffee Shop",
            "image": "no-img",
            "hours": 0,
            "handicap": false,
            "likes": 0,
            "dislikes": 0
        },
        {
            "id": 7,
            "address": "Pathmark @ 1525 Albany Ave.",
            "borough": "Brooklyn",
            "type": "Grocery",
            "image": "no-img",
            "hours": "Daily: 6am - 10pm",
            "handicap": false,
            "likes": 0,
            "dislikes": 0
        },
        {
            "id": 8,
            "address": "Bronx Park @ E219 St & W/S Bronx Park",
            "borough": "Bronx",
            "type": "Public",
            "image": "no-img",
            "hours": "park hours",
            "handicap": false,
            "likes": 0,
            "dislikes": 0
        },
        {
            "id": 9,
            "address": "Virginia Playground @ Virginia Ave & McGraw Ave.",
            "borough": "Bronx",
            "type": "Public",
            "image": "no-img",
            "hours": "park hours",
            "handicap": false,
            "likes": 0,
            "dislikes": 0
        },
        {
            "id": 10,
            "address": "Lost Battalion Hall @ 93-29 Queens Blvd, Rego Park",
            "borough": "Queens",
            "type": "Public",
            "image": "no-img",
            "hours": "M-F 8am-10pm, Saturday: 9am-5pm",
            "handicap": true,
            "likes": 0,
            "dislikes": 0
        },
        {
            "id": 11,
            "address": "Hoffman Park @ Hoffman Dr.",
            "borough": "Queens",
            "type": "Public",
            "image": "no-img",
            "hours": "6am - 9pm",
            "handicap": false,
            "likes": 0,
            "dislikes": 0
        },
        {
            "id": 12,
            "address": "New Yorker Hotel @ 481 8th Ave",
            "borough": "Manhattan",
            "type": "hotel",
            "image": "no-img",
            "hours": "24 hours",
            "handicap": true,
            "likes": 0,
            "dislikes": 0
        },
        {
            "id": 13,
            "address": "Barnes & Noble @ 33 E17th St",
            "borough": "Manhattan",
            "type": "Bookstore",
            "image": "no-img",
            "hours": "Mon-Sat 9am-9pm, Sun 10am-8pm",
            "handicap": true,
            "likes": 0,
            "dislikes": 0
        },
        {
            "id": 14,
            "address": "Strand @ Columbus Ave.",
            "borough": "Manhattan",
            "type": "Bookstore",
            "image": "no-img",
            "hours": "11am - 7pm ",
            "handicap": false,
            "likes": 0,
            "dislikes": 0
        },
        {
            "id": 15,
            "address": "Staten Island Mall @ 2655 Richmond Ave",
            "borough": "Staten Island",
            "type": "Mall",
            "image": "no-img",
            "hours": "Mon-Thurs 11am-7pm, Fri-Sat 11am-8pm, Sun 11am-6pm",
            "handicap": true,
            "likes": 0,
            "dislikes": 0
        },
        {
            "id": 16,
            "address": "Starbucks @ 480 Forest Ave.",
            "borough": "Staten Island",
            "type": "Coffee Shop",
            "image": "no-img",
            "hours": "daily: 6am-8pm",
            "handicap": false,
            "likes": 0,
            "dislikes": 0
        },
        {
            "id": 17,
            "address": "McDonald's @ 1101 E. Tremont Ave.",
            "borough": "Bronx",
            "type": "test",
            "image": "no-img",
            "hours": "daily: 5am-11pm",
            "handicap": false,
            "likes": 0,
            "dislikes": 0
        },
        {
            "id": 18,
            "address": "Queens Center @ 90-15 Queens Blvd",
            "borough": "Queens",
            "type": "Mall",
            "image": "no-img",
            "hours": "Sun-Thurs 11am-7pm, Fri-Sat 11am-8pm",
            "handicap": true,
            "likes": 0,
            "dislikes": 0
        },
        {
            "id": 19,
            "address": "Clove Lake Park @ Clove Lakes Park",
            "borough": "Staten Island",
            "type": "publc",
            "image": "no-img",
            "hours": "daily: 8am-4pm",
            "handicap": true
        },
        {
            "id": 20,
            "address": "Manhattan Mall @ 33rd St & 6th Ave.",
            "borough": "Manhattan",
            "type": "Mall",
            "image": "no-img",
            "hours": "Sun-Fri 9am-9:30pm, Sat 10am-8:30pm",
            "handicap": true,
            "likes": 0,
            "dislikes": 0
            }
    ],
    "users": [
        {
            "id": 1,
            "name": "testificate"
        }
    ],
    "comments": [
        {
            "id": 1,
            "author": "testificate",
            "content": "lorem ipsum",
            "restroomId": 1
        }
    ]
}